[
  {
    "locationId": "540FC007",
    "storeNumber": "FC007",
    "address": {
      "addressLine1": "6125 N Jackson Gap St",
      "city": "Aurora",
      "state": "CO",
      "zipCode": "80019",
      "county": "ARAPAHOE COUNTY"
    },
    "geolocation": {
      "latitude": 39.808049,
      "longitude": -104.69254,
      "latLng": "39.808049,-104.69254"
    },
    "chain": "KROGER",
    "name": "Kroger - - Denver Shed"
  },
  {
    "locationId": "540FC271",
    "storeNumber": "FC271",
    "address": {
      "addressLine1": "4151 Ronald Reagan Blvd",
      "city": "Johnstown",
      "state": "CO",
      "zipCode": "80534",
      "county": "WELD COUNTY"
    },
    "geolocation": {
      "latitude": 40.4046326,
      "longitude": -104.96646,
      "latLng": "40.4046326,-104.96646"
    },
    "chain": "KROGER",
    "name": "Kroger - - Northern Colorado Spoke"
  },
  {
    "locationId": "62000001",
    "storeNumber": "00001",
    "address": {
      "addressLine1": "1331 Speer Blvd",
      "city": "Denver",
      "state": "CO",
      "zipCode": "80204",
      "county": "DENVER COUNTY"
    },
    "geolocation": {
      "latitude": 39.7374922,
      "longitude": -104.9979695,
      "latLng": "39.7374922,-104.9979695"
    },
    "chain": "KINGSOOPERS",
    "name": "King Soopers - Speer Blvd"
  },
  {
    "locationId": "62000003",
    "storeNumber": "00003",
    "address": {
      "addressLine1": "6350 Sheridan Blvd",
      "city": "Arvada",
      "state": "CO",
      "zipCode": "80003",
      "county": "ADAMS COUNTY"
    },
    "geolocation": {
      "latitude": 39.811036,
      "longitude": -105.051597,
      "latLng": "39.811036,-105.051597"
    },
    "chain": "KINGSOOPERS",
    "name": "King Soopers - Lloyd King Center"
  },
  {
    "locationId": "62000005",
    "storeNumber": "00005",
    "address": {
      "addressLine1": "1355 Krameria St",
      "city": "Denver",
      "state": "CO",
      "zipCode": "80220",
      "county": "DENVER COUNTY"
    },
    "geolocation": {
      "latitude": 39.7376325,
      "longitude": -104.9176554,
      "latLng": "39.7376325,-104.9176554"
    },
    "chain": "KINGSOOPERS",
    "name": "King Soopers - MAYFAIR"
  },
  {
    "locationId": "62000006",
    "storeNumber": "00006",
    "address": {
      "addressLine1": "1750 W Uintah St",
      "city": "Colorado Springs",
      "state": "CO",
      "zipCode": "80904",
      "county": "EL PASO COUNTY"
    },
    "geolocation": {
      "latitude": 38.8490733,
      "longitude": -104.8471797,
      "latLng": "38.8490733,-104.8471797"
    },
    "chain": "KINGSOOPERS",
    "name": "King Soopers - Westside Uintah"
  },
  {
    "locationId": "62000007",
    "storeNumber": "00007",
    "address": {
      "addressLine1": "5125 W Florida Ave",
      "city": "Denver",
      "state": "CO",
      "zipCode": "80219",
      "county": "DENVER COUNTY"
    },
    "geolocation": {
      "latitude": 39.690877,
      "longitude": -105.05212470000001,
      "latLng": "39.690877,-105.05212470000001"
    },
    "chain": "KINGSOOPERS",
    "name": "King Soopers - W Florida Ave"
  },
  {
    "locationId": "62000008",
    "storeNumber": "00008",
    "address": {
      "addressLine1": "2205 W Wildcat Reserve Pkwy",
      "city": "Highlands Ranch",
      "state": "CO",
      "zipCode": "80129",
      "county": "DOUGLAS COUNTY"
    },
    "geolocation": {
      "latitude": 39.5366036,
      "longitude": -105.0136219,
      "latLng": "39.5366036,-105.0136219"
    },
    "chain": "KINGSOOPERS",
    "name": "King Soopers - Wildcat Reserve"
  },
  {
    "locationId": "62000009",
    "storeNumber": "00009",
    "address": {
      "addressLine1": "1015 S Taft Hill Rd",
      "city": "Fort Collins",
      "state": "CO",
      "zipCode": "80521",
      "county": "LARIMER COUNTY"
    },
    "geolocation": {
      "latitude": 40.5741644,
      "longitude": -105.1169274,
      "latLng": "40.5741644,-105.1169274"
    },
    "chain": "KINGSOOPERS",
    "name": "King Soopers - CEDARWOOD"
  },
  {
    "locationId": "62000010",
    "storeNumber": "00010",
    "address": {
      "addressLine1": "15250 E Mississippi Ave",
      "city": "Aurora",
      "state": "CO",
      "zipCode": "80012",
      "county": "ARAPAHOE COUNTY"
    },
    "geolocation": {
      "latitude": 39.6951161,
      "longitude": -104.8109163,
      "latLng": "39.6951161,-104.8109163"
    },
    "chain": "KINGSOOPERS",
    "name": "King Soopers - VILLAGE GREEN"
  },
  {
    "locationId": "62000011",
    "storeNumber": "00011",
    "address": {
      "addressLine1": "2100 35Th Ave",
      "city": "Greeley",
      "state": "CO",
      "zipCode": "80634",
      "county": "WELD COUNTY"
    },
    "geolocation": {
      "latitude": 40.404757,
      "longitude": -104.733193,
      "latLng": "40.404757,-104.733193"
    },
    "chain": "KINGSOOPERS",
    "name": "King Soopers - Westlake"
  },
  {
    "locationId": "62000012",
    "storeNumber": "00012",
    "address": {
      "addressLine1": "3050 W Northern Ave",
      "city": "Pueblo",
      "state": "CO",
      "zipCode": "81005",
      "county": "PUEBLO COUNTY"
    },
    "geolocation": {
      "latitude": 38.2427856,
      "longitude": -104.6457677,
      "latLng": "38.2427856,-104.6457677"
    },
    "chain": "KINGSOOPERS",
    "name": "King Soopers - Southside on Northern Avenue"
  },
  {
    "locationId": "62000013",
    "storeNumber": "00013",
    "address": {
      "addressLine1": "1375 E South Boulder Rd",
      "city": "Louisville",
      "state": "CO",
      "zipCode": "80027",
      "county": "BOULDER COUNTY"
    },
    "geolocation": {
      "latitude": 39.9884018,
      "longitude": -105.1242444,
      "latLng": "39.9884018,-105.1242444"
    },
    "chain": "KINGSOOPERS",
    "name": "King Soopers - LOUISVILLE"
  },
  {
    "locationId": "62000014",
    "storeNumber": "00014",
    "address": {
      "addressLine1": "655 Peoria St",
      "city": "Aurora",
      "state": "CO",
      "zipCode": "80011",
      "county": "ARAPAHOE COUNTY"
    },
    "geolocation": {
      "latitude": 39.7264929,
      "longitude": -104.849601,
      "latLng": "39.7264929,-104.849601"
    },
    "chain": "KINGSOOPERS",
    "name": "King Soopers - Peoria Street"
  },
  {
    "locationId": "62000016",
    "storeNumber": "00016",
    "address": {
      "addressLine1": "19711 E Smoky Hill Rd",
      "city": "Centennial",
      "state": "CO",
      "zipCode": "80015",
      "county": "ARAPAHOE COUNTY"
    },
    "geolocation": {
      "latitude": 39.615265,
      "longitude": -104.758565,
      "latLng": "39.615265,-104.758565"
    },
    "chain": "KINGSOOPERS",
    "name": "King Soopers - Smoky Hill and Himalaya"
  },
  {
    "locationId": "62000018",
    "storeNumber": "00018",
    "address": {
      "addressLine1": "2325 S College Ave",
      "city": "Fort Collins",
      "state": "CO",
      "zipCode": "80525",
      "county": "LARIMER COUNTY"
    },
    "geolocation": {
      "latitude": 40.5569262,
      "longitude": -105.0786613,
      "latLng": "40.5569262,-105.0786613"
    },
    "chain": "KINGSOOPERS",
    "name": "King Soopers - College Avenue"
  },
  {
    "locationId": "62000019",
    "storeNumber": "00019",
    "address": {
      "addressLine1": "3100 S Sheridan Blvd",
      "city": "Denver",
      "state": "CO",
      "zipCode": "80227",
      "county": "DENVER COUNTY"
    },
    "geolocation": {
      "latitude": 39.654558,
      "longitude": -105.051173,
      "latLng": "39.654558,-105.051173"
    },
    "chain": "KINGSOOPERS",
    "name": "King Soopers - BEAR VALLEY"
  },
  {
    "locationId": "62000020",
    "storeNumber": "00020",
    "address": {
      "addressLine1": "3400 Youngfield St",
      "city": "Wheat Ridge",
      "state": "CO",
      "zipCode": "80033",
      "county": "JEFFERSON COUNTY"
    },
    "geolocation": {
      "latitude": 39.7646004,
      "longitude": -105.139917,
      "latLng": "39.7646004,-105.139917"
    },
    "chain": "KINGSOOPERS",
    "name": "King Soopers - APPLEWOOD"
  },
  {
    "locationId": "62000021",
    "storeNumber": "00021",
    "address": {
      "addressLine1": "825 S Colorado Blvd",
      "city": "Denver",
      "state": "CO",
      "zipCode": "80246",
      "county": "DENVER COUNTY"
    },
    "geolocation": {
      "latitude": 39.7024108,
      "longitude": -104.9415072,
      "latLng": "39.7024108,-104.9415072"
    },
    "chain": "KINGSOOPERS",
    "name": "King Soopers - BELCARO"
  },
  {
    "locationId": "62000022",
    "storeNumber": "00022",
    "address": {
      "addressLine1": "9731 W 58Th Ave",
      "city": "Arvada",
      "state": "CO",
      "zipCode": "80002",
      "county": "JEFFERSON COUNTY"
    },
    "geolocation": {
      "latitude": 39.8032174,
      "longitude": -105.106555,
      "latLng": "39.8032174,-105.106555"
    },
    "chain": "KINGSOOPERS",
    "name": "King Soopers - 58th and Ralston"
  },
  {
    "locationId": "62000024",
    "storeNumber": "00024",
    "address": {
      "addressLine1": "750 E 104Th Ave Unit A",
      "city": "Thornton",
      "state": "CO",
      "zipCode": "80233",
      "county": "ADAMS COUNTY"
    },
    "geolocation": {
      "latitude": 39.883825,
      "longitude": -104.976078,
      "latLng": "39.883825,-104.976078"
    },
    "chain": "KINGSOOPERS",
    "name": "King Soopers - 104th and Washington"
  },
  {
    "locationId": "62000025",
    "storeNumber": "00025",
    "address": {
      "addressLine1": "11747 W Ken Caryl Ave",
      "city": "Littleton",
      "state": "CO",
      "zipCode": "80127",
      "county": "JEFFERSON COUNTY"
    },
    "geolocation": {
      "latitude": 39.582149,
      "longitude": -105.130835,
      "latLng": "39.582149,-105.130835"
    },
    "chain": "KINGSOOPERS",
    "name": "King Soopers - KEN CARYL"
  },
  {
    "locationId": "62000026",
    "storeNumber": "00026",
    "address": {
      "addressLine1": "6470 E Hampden Ave",
      "city": "Denver",
      "state": "CO",
      "zipCode": "80222",
      "county": "DENVER COUNTY"
    },
    "geolocation": {
      "latitude": 39.6518119,
      "longitude": -104.9141888,
      "latLng": "39.6518119,-104.9141888"
    },
    "chain": "KINGSOOPERS",
    "name": "King Soopers - SOUTHMOOR"
  },
  {
    "locationId": "62000027",
    "storeNumber": "00027",
    "address": {
      "addressLine1": "9551 S University Blvd",
      "city": "Highlands Ranch",
      "state": "CO",
      "zipCode": "80126",
      "county": "DOUGLAS COUNTY"
    },
    "geolocation": {
      "latitude": 39.5422823,
      "longitude": -104.9441651,
      "latLng": "39.5422823,-104.9441651"
    },
    "chain": "KINGSOOPERS",
    "name": "King Soopers - University and Colorado"
  },
  {
    "locationId": "62000028",
    "storeNumber": "00028",
    "address": {
      "addressLine1": "6550 Lookout Rd",
      "city": "Boulder",
      "state": "CO",
      "zipCode": "80301",
      "county": "BOULDER COUNTY"
    },
    "geolocation": {
      "latitude": 40.071793,
      "longitude": -105.200815,
      "latLng": "40.071793,-105.200815"
    },
    "chain": "KINGSOOPERS",
    "name": "King Soopers - Gun Barrel"
  },
  {
    "locationId": "62000029",
    "storeNumber": "00029",
    "address": {
      "addressLine1": "1155 E 9Th Ave",
      "city": "Denver",
      "state": "CO",
      "zipCode": "80218",
      "county": "DENVER COUNTY"
    },
    "geolocation": {
      "latitude": 39.7311271,
      "longitude": -104.9735436,
      "latLng": "39.7311271,-104.9735436"
    },
    "chain": "KINGSOOPERS",
    "name": "King Soopers - CAPITOL HILL"
  },
  {
    "locationId": "62000030",
    "storeNumber": "00030",
    "address": {
      "addressLine1": "1155 S Havana St",
      "city": "Aurora",
      "state": "CO",
      "zipCode": "80012",
      "county": "ARAPAHOE COUNTY"
    },
    "geolocation": {
      "latitude": 39.6958666,
      "longitude": -104.8680224,
      "latLng": "39.6958666,-104.8680224"
    },
    "chain": "KINGSOOPERS",
    "name": "King Soopers - Havana and Mississippi"
  },
  {
    "locationId": "62000031",
    "storeNumber": "00031",
    "address": {
      "addressLine1": "1927 S Wadsworth Blvd",
      "city": "Lakewood",
      "state": "CO",
      "zipCode": "80227",
      "county": "JEFFERSON COUNTY"
    },
    "geolocation": {
      "latitude": 39.681512,
      "longitude": -105.0832565,
      "latLng": "39.681512,-105.0832565"
    },
    "chain": "KINGSOOPERS",
    "name": "King Soopers - Jewell and Wadsworth"
  },
  {
    "locationId": "62000032",
    "storeNumber": "00032",
    "address": {
      "addressLine1": "2712 11Th Ave",
      "city": "Greeley",
      "state": "CO",
      "zipCode": "80631",
      "county": "WELD COUNTY"
    },
    "geolocation": {
      "latitude": 40.3924487,
      "longitude": -104.6946411,
      "latLng": "40.3924487,-104.6946411"
    },
    "chain": "KINGSOOPERS",
    "name": "King Soopers - University Square"
  },
  {
    "locationId": "62000033",
    "storeNumber": "00033",
    "address": {
      "addressLine1": "3600 Table Mesa Dr",
      "city": "Boulder",
      "state": "CO",
      "zipCode": "80305",
      "county": "BOULDER COUNTY"
    },
    "geolocation": {
      "latitude": 39.9834627,
      "longitude": -105.2512976,
      "latLng": "39.9834627,-105.2512976"
    },
    "chain": "KINGSOOPERS",
    "name": "King Soopers - TABLE MESA"
  },
  {
    "locationId": "62000034",
    "storeNumber": "00034",
    "address": {
      "addressLine1": "1575 W 84Th Ave",
      "city": "Denver",
      "state": "CO",
      "zipCode": "80260",
      "county": "ADAMS COUNTY"
    },
    "geolocation": {
      "latitude": 39.8504111,
      "longitude": -105.0047262,
      "latLng": "39.8504111,-105.0047262"
    },
    "chain": "KINGSOOPERS",
    "name": "King Soopers - Federal Heights"
  },
  {
    "locationId": "62000035",
    "storeNumber": "00035",
    "address": {
      "addressLine1": "890 S Monaco Pkwy",
      "city": "Denver",
      "state": "CO",
      "zipCode": "80224",
      "county": "DENVER COUNTY"
    },
    "geolocation": {
      "latitude": 39.7007781,
      "longitude": -104.9111707,
      "latLng": "39.7007781,-104.9111707"
    },
    "chain": "KINGSOOPERS",
    "name": "King Soopers - Monaco Parkway"
  },
  {
    "locationId": "62000036",
    "storeNumber": "00036",
    "address": {
      "addressLine1": "8031 Wadsworth Blvd",
      "city": "Arvada",
      "state": "CO",
      "zipCode": "80003",
      "county": "JEFFERSON COUNTY"
    },
    "geolocation": {
      "latitude": 39.8433661,
      "longitude": -105.0838261,
      "latLng": "39.8433661,-105.0838261"
    },
    "chain": "KINGSOOPERS",
    "name": "King Soopers Marketplace - Lake Arbor"
  },
  {
    "locationId": "62000038",
    "storeNumber": "00038",
    "address": {
      "addressLine1": "5050 E Arapahoe Rd",
      "city": "Centennial",
      "state": "CO",
      "zipCode": "80122",
      "county": "ARAPAHOE COUNTY"
    },
    "geolocation": {
      "latitude": 39.5944344,
      "longitude": -104.9287653,
      "latLng": "39.5944344,-104.9287653"
    },
    "chain": "KINGSOOPERS",
    "name": "King Soopers - Holly and Arapahoe"
  },
  {
    "locationId": "62000040",
    "storeNumber": "00040",
    "address": {
      "addressLine1": "12043 W Alameda Pkwy",
      "city": "Lakewood",
      "state": "CO",
      "zipCode": "80228",
      "county": "JEFFERSON COUNTY"
    },
    "geolocation": {
      "latitude": 39.7087615,
      "longitude": -105.1372612,
      "latLng": "39.7087615,-105.1372612"
    },
    "chain": "KINGSOOPERS",
    "name": "King Soopers - GREEN MOUNTAIN"
  },
  {
    "locationId": "62000041",
    "storeNumber": "00041",
    "address": {
      "addressLine1": "6760 S Pierce St",
      "city": "Littleton",
      "state": "CO",
      "zipCode": "80128",
      "county": "JEFFERSON COUNTY"
    },
    "geolocation": {
      "latitude": 39.5935264,
      "longitude": -105.0719862,
      "latLng": "39.5935264,-105.0719862"
    },
    "chain": "KINGSOOPERS",
    "name": "King Soopers - Coalmine and Pierce"
  },
  {
    "locationId": "62000042",
    "storeNumber": "00042",
    "address": {
      "addressLine1": "2255 Main St",
      "city": "Longmont",
      "state": "CO",
      "zipCode": "80501",
      "county": "BOULDER COUNTY"
    },
    "geolocation": {
      "latitude": 40.1988602,
      "longitude": -105.1042149,
      "latLng": "40.1988602,-105.1042149"
    },
    "chain": "KINGSOOPERS",
    "name": "King Soopers - North Main"
  },
  {
    "locationId": "62000043",
    "storeNumber": "00043",
    "address": {
      "addressLine1": "102 W 29Th St",
      "city": "Pueblo",
      "state": "CO",
      "zipCode": "81008",
      "county": "PUEBLO COUNTY"
    },
    "geolocation": {
      "latitude": 38.2975113,
      "longitude": -104.6065535,
      "latLng": "38.2975113,-104.6065535"
    },
    "chain": "KINGSOOPERS",
    "name": "King Soopers - Northside on 29th Street"
  },
  {
    "locationId": "62000044",
    "storeNumber": "00044",
    "address": {
      "addressLine1": "253 E 29Th St",
      "city": "Loveland",
      "state": "CO",
      "zipCode": "80538",
      "county": "LARIMER COUNTY"
    },
    "geolocation": {
      "latitude": 40.425077,
      "longitude": -105.075586,
      "latLng": "40.425077,-105.075586"
    },
    "chain": "KINGSOOPERS",
    "name": "King Soopers - 29th Street Loveland"
  },
  {
    "locationId": "62000045",
    "storeNumber": "00045",
    "address": {
      "addressLine1": "12350 W 64Th Ave",
      "city": "Arvada",
      "state": "CO",
      "zipCode": "80004",
      "county": "JEFFERSON COUNTY"
    },
    "geolocation": {
      "latitude": 39.8112546,
      "longitude": -105.1365385,
      "latLng": "39.8112546,-105.1365385"
    },
    "chain": "KINGSOOPERS",
    "name": "King Soopers - 64th and Ward"
  },
  {
    "locationId": "62000047",
    "storeNumber": "00047",
    "address": {
      "addressLine1": "7575 S University Blvd",
      "city": "Centennial",
      "state": "CO",
      "zipCode": "80122",
      "county": "ARAPAHOE COUNTY"
    },
    "geolocation": {
      "latitude": 39.5785134,
      "longitude": -104.9613844,
      "latLng": "39.5785134,-104.9613844"
    },
    "chain": "KINGSOOPERS",
    "name": "King Soopers - Cherrywood Square"
  },
  {
    "locationId": "62000049",
    "storeNumber": "00049",
    "address": {
      "addressLine1": "17000 E Iliff Ave",
      "city": "Aurora",
      "state": "CO",
      "zipCode": "80013",
      "county": "ARAPAHOE COUNTY"
    },
    "geolocation": {
      "latitude": 39.671814,
      "longitude": -104.7897375,
      "latLng": "39.671814,-104.7897375"
    },
    "chain": "KINGSOOPERS",
    "name": "King Soopers - Iliff at Buckley"
  },
  {
    "locationId": "62000050",
    "storeNumber": "00050",
    "address": {
      "addressLine1": "9820 W Belleview Ave",
      "city": "Littleton",
      "state": "CO",
      "zipCode": "80123",
      "county": "JEFFERSON COUNTY"
    },
    "geolocation": {
      "latitude": 39.6232855,
      "longitude": -105.1074858,
      "latLng": "39.6232855,-105.1074858"
    },
    "chain": "KINGSOOPERS",
    "name": "King Soopers - Governors Plaza"
  },
  {
    "locationId": "62000052",
    "storeNumber": "00052",
    "address": {
      "addressLine1": "15109 E Colfax Ave",
      "city": "Aurora",
      "state": "CO",
      "zipCode": "80011",
      "county": "ADAMS COUNTY"
    },
    "geolocation": {
      "latitude": 39.7416552,
      "longitude": -104.8123413,
      "latLng": "39.7416552,-104.8123413"
    },
    "chain": "KINGSOOPERS",
    "name": "King Soopers - E Colfax Ave"
  },
  {
    "locationId": "62000053",
    "storeNumber": "00053",
    "address": {
      "addressLine1": "6930 N Academy Blvd",
      "city": "Colorado Springs",
      "state": "CO",
      "zipCode": "80918",
      "county": "EL PASO COUNTY"
    },
    "geolocation": {
      "latitude": 38.9310777,
      "longitude": -104.7969066,
      "latLng": "38.9310777,-104.7969066"
    },
    "chain": "KINGSOOPERS",
    "name": "King Soopers - Woodman and Academy"
  },
  {
    "locationId": "62000055",
    "storeNumber": "00055",
    "address": {
      "addressLine1": "9983 Wadsworth Pkwy",
      "city": "Westminster",
      "state": "CO",
      "zipCode": "80021",
      "county": "JEFFERSON COUNTY"
    },
    "geolocation": {
      "latitude": 39.8766399,
      "longitude": -105.0981883,
      "latLng": "39.8766399,-105.0981883"
    },
    "chain": "KINGSOOPERS",
    "name": "King Soopers - Wadsworth and Church Ranch"
  },
  {
    "locationId": "62000056",
    "storeNumber": "00056",
    "address": {
      "addressLine1": "2727 W Evans Ave",
      "city": "Denver",
      "state": "CO",
      "zipCode": "80219",
      "county": "DENVER COUNTY"
    },
    "geolocation": {
      "latitude": 39.6801188,
      "longitude": -105.0211474,
      "latLng": "39.6801188,-105.0211474"
    },
    "chain": "KINGSOOPERS",
    "name": "King Soopers - W Evans Ave"
  },
  {
    "locationId": "62000057",
    "storeNumber": "00057",
    "address": {
      "addressLine1": "5301 W 38th Ave",
      "city": "Wheat Ridge",
      "state": "CO",
      "zipCode": "80212",
      "county": "JEFFERSON COUNTY"
    },
    "geolocation": {
      "latitude": 39.7703823,
      "longitude": -105.0542489,
      "latLng": "39.7703823,-105.0542489"
    },
    "chain": "KINGSOOPERS",
    "name": "King Soopers - Ridge Village on 38th Ave"
  },
  {
    "locationId": "62000058",
    "storeNumber": "00058",
    "address": {
      "addressLine1": "815 Cheyenne Meadows Rd",
      "city": "Colorado Springs",
      "state": "CO",
      "zipCode": "80906",
      "county": "EL PASO COUNTY"
    },
    "geolocation": {
      "latitude": 38.775994,
      "longitude": -104.812048,
      "latLng": "38.775994,-104.812048"
    },
    "chain": "KINGSOOPERS",
    "name": "King Soopers - Cheyenne Meadows Center"
  },
  {
    "locationId": "62000059",
    "storeNumber": "00059",
    "address": {
      "addressLine1": "1545 S Kipling Pkwy",
      "city": "Lakewood",
      "state": "CO",
      "zipCode": "80232",
      "county": "JEFFERSON COUNTY"
    },
    "geolocation": {
      "latitude": 39.6904696,
      "longitude": -105.1195288,
      "latLng": "39.6904696,-105.1195288"
    },
    "chain": "KINGSOOPERS",
    "name": "King Soopers - Lakewood Square"
  },
  {
    "locationId": "62000060",
    "storeNumber": "00060",
    "address": {
      "addressLine1": "1555 Quail St",
      "city": "Lakewood",
      "state": "CO",
      "zipCode": "80215",
      "county": "JEFFERSON COUNTY"
    },
    "geolocation": {
      "latitude": 39.7421331,
      "longitude": -105.1252884,
      "latLng": "39.7421331,-105.1252884"
    },
    "chain": "KINGSOOPERS",
    "name": "King Soopers - Quail Street"
  },
  {
    "locationId": "62000061",
    "storeNumber": "00061",
    "address": {
      "addressLine1": "1650 30Th St",
      "city": "Boulder",
      "state": "CO",
      "zipCode": "80301",
      "county": "BOULDER COUNTY"
    },
    "geolocation": {
      "latitude": 40.0157912,
      "longitude": -105.2518304,
      "latLng": "40.0157912,-105.2518304"
    },
    "chain": "KINGSOOPERS",
    "name": "King Soopers - 30th Street Boulder"
  },
  {
    "locationId": "62000062",
    "storeNumber": "00062",
    "address": {
      "addressLine1": "10351 Federal Blvd",
      "city": "Westminster",
      "state": "CO",
      "zipCode": "80260",
      "county": "ADAMS COUNTY"
    },
    "geolocation": {
      "latitude": 39.8831014,
      "longitude": -105.027623,
      "latLng": "39.8831014,-105.027623"
    },
    "chain": "KINGSOOPERS",
    "name": "King Soopers - 104th and Federal"
  },
  {
    "locationId": "62000063",
    "storeNumber": "00063",
    "address": {
      "addressLine1": "8200 S Holly St",
      "city": "Centennial",
      "state": "CO",
      "zipCode": "80122",
      "county": "ARAPAHOE COUNTY"
    },
    "geolocation": {
      "latitude": 39.56767,
      "longitude": -104.9208076,
      "latLng": "39.56767,-104.9208076"
    },
    "chain": "KINGSOOPERS",
    "name": "King Soopers - County Line and Holly"
  },
  {
    "locationId": "62000064",
    "storeNumber": "00064",
    "address": {
      "addressLine1": "1173 Bergen Pkwy",
      "city": "Evergreen",
      "state": "CO",
      "zipCode": "80439",
      "county": "JEFFERSON COUNTY"
    },
    "geolocation": {
      "latitude": 39.6934687,
      "longitude": -105.3585441,
      "latLng": "39.6934687,-105.3585441"
    },
    "chain": "KINGSOOPERS",
    "name": "King Soopers - Bergen Park"
  },
  {
    "locationId": "62000065",
    "storeNumber": "00065",
    "address": {
      "addressLine1": "101 Englewood Pkwy",
      "city": "Englewood",
      "state": "CO",
      "zipCode": "80110",
      "county": "ARAPAHOE COUNTY"
    },
    "geolocation": {
      "latitude": 39.6557799,
      "longitude": -104.989428,
      "latLng": "39.6557799,-104.989428"
    },
    "chain": "KINGSOOPERS",
    "name": "King Soopers - Englewood Pkwy and S Broadway"
  },
  {
    "locationId": "62000068",
    "storeNumber": "00068",
    "address": {
      "addressLine1": "3801 E 120Th Ave",
      "city": "Thornton",
      "state": "CO",
      "zipCode": "80233",
      "county": "ADAMS COUNTY"
    },
    "geolocation": {
      "latitude": 39.9147253,
      "longitude": -104.943554,
      "latLng": "39.9147253,-104.943554"
    },
    "chain": "KINGSOOPERS",
    "name": "King Soopers - Mission Trace"
  },
  {
    "locationId": "62000069",
    "storeNumber": "00069",
    "address": {
      "addressLine1": "4271 S Buckley Rd",
      "city": "Aurora",
      "state": "CO",
      "zipCode": "80013",
      "county": "ADAMS COUNTY"
    },
    "geolocation": {
      "latitude": 39.6393678,
      "longitude": -104.7934276,
      "latLng": "39.6393678,-104.7934276"
    },
    "chain": "KINGSOOPERS",
    "name": "King Soopers - Quincy Place Mission Viejo"
  },
  {
    "locationId": "62000072",
    "storeNumber": "00072",
    "address": {
      "addressLine1": "2750 S Colorado Blvd",
      "city": "Denver",
      "state": "CO",
      "zipCode": "80222",
      "county": "DENVER COUNTY"
    },
    "geolocation": {
      "latitude": 39.6667598,
      "longitude": -104.9368423,
      "latLng": "39.6667598,-104.9368423"
    },
    "chain": "KINGSOOPERS",
    "name": "King Soopers - University Hills"
  },
  {
    "locationId": "62000073",
    "storeNumber": "00073",
    "address": {
      "addressLine1": "4503 John F Kennedy Pkwy",
      "city": "Fort Collins",
      "state": "CO",
      "zipCode": "80525",
      "county": "LARIMER COUNTY"
    },
    "geolocation": {
      "latitude": 40.525076,
      "longitude": -105.0734131,
      "latLng": "40.525076,-105.0734131"
    },
    "chain": "KINGSOOPERS",
    "name": "King Soopers - JFK Parkway"
  },
  {
    "locationId": "62000074",
    "storeNumber": "00074",
    "address": {
      "addressLine1": "1275 Eagle Dr",
      "city": "Loveland",
      "state": "CO",
      "zipCode": "80537",
      "county": "LARIMER COUNTY"
    },
    "geolocation": {
      "latitude": 40.3798139,
      "longitude": -105.099627,
      "latLng": "40.3798139,-105.099627"
    },
    "chain": "KINGSOOPERS",
    "name": "King Soopers - Eagle Drive Loveland"
  },
  {
    "locationId": "62000075",
    "storeNumber": "00075",
    "address": {
      "addressLine1": "12959 S Parker Rd",
      "city": "Parker",
      "state": "CO",
      "zipCode": "80134",
      "county": "DOUGLAS COUNTY"
    },
    "geolocation": {
      "latitude": 39.4797451,
      "longitude": -104.7606324,
      "latLng": "39.4797451,-104.7606324"
    },
    "chain": "KINGSOOPERS",
    "name": "King Soopers - Stroh Ranch"
  },
  {
    "locationId": "62000076",
    "storeNumber": "00076",
    "address": {
      "addressLine1": "3570 Hartsel Dr",
      "city": "Colorado Springs",
      "state": "CO",
      "zipCode": "80920",
      "county": "EL PASO COUNTY"
    },
    "geolocation": {
      "latitude": 38.9400064,
      "longitude": -104.7605006,
      "latLng": "38.9400064,-104.7605006"
    },
    "chain": "KINGSOOPERS",
    "name": "King Soopers - Hartsel Drive"
  },
  {
    "locationId": "62000077",
    "storeNumber": "00077",
    "address": {
      "addressLine1": "1070 W Baptist Rd",
      "city": "Colorado Springs",
      "state": "CO",
      "zipCode": "80921",
      "county": "EL PASO COUNTY"
    },
    "geolocation": {
      "latitude": 39.057988,
      "longitude": -104.843074,
      "latLng": "39.057988,-104.843074"
    },
    "chain": "KINGSOOPERS",
    "name": "King Soopers - Monument"
  },
  {
    "locationId": "62000078",
    "storeNumber": "00078",
    "address": {
      "addressLine1": "8126 S Wadsworth Blvd",
      "city": "Littleton",
      "state": "CO",
      "zipCode": "80128",
      "county": "JEFFERSON COUNTY"
    },
    "geolocation": {
      "latitude": 39.5684575,
      "longitude": -105.0814688,
      "latLng": "39.5684575,-105.0814688"
    },
    "chain": "KINGSOOPERS",
    "name": "King Soopers - Columbine Knolls Village"
  },
  {
    "locationId": "62000080",
    "storeNumber": "00080",
    "address": {
      "addressLine1": "995 S Hover St",
      "city": "Longmont",
      "state": "CO",
      "zipCode": "80501",
      "county": "BOULDER COUNTY"
    },
    "geolocation": {
      "latitude": 40.1505653,
      "longitude": -105.1340736,
      "latLng": "40.1505653,-105.1340736"
    },
    "chain": "KINGSOOPERS",
    "name": "King Soopers - Hover Street"
  },
  {
    "locationId": "62000081",
    "storeNumber": "00081",
    "address": {
      "addressLine1": "500 E Bromley Ln",
      "city": "Brighton",
      "state": "CO",
      "zipCode": "80601",
      "county": "ADAMS COUNTY"
    },
    "geolocation": {
      "latitude": 39.9704255,
      "longitude": -104.8160199,
      "latLng": "39.9704255,-104.8160199"
    },
    "chain": "KINGSOOPERS",
    "name": "King Soopers - 4th and Bromley Lane"
  },
  {
    "locationId": "62000082",
    "storeNumber": "00082",
    "address": {
      "addressLine1": "17171 S Golden Rd",
      "city": "Golden",
      "state": "CO",
      "zipCode": "80401",
      "county": "JEFFERSON COUNTY"
    },
    "geolocation": {
      "latitude": 39.7394682,
      "longitude": -105.1929724,
      "latLng": "39.7394682,-105.1929724"
    },
    "chain": "KINGSOOPERS",
    "name": "King Soopers - Golden Road"
  },
  {
    "locationId": "62000083",
    "storeNumber": "00083",
    "address": {
      "addressLine1": "18605 Green Valley Ranch Blvd",
      "city": "Denver",
      "state": "CO",
      "zipCode": "80249",
      "county": "DENVER COUNTY"
    },
    "geolocation": {
      "latitude": 39.785361,
      "longitude": -104.770072,
      "latLng": "39.785361,-104.770072"
    },
    "chain": "KINGSOOPERS",
    "name": "King Soopers - Green Valley Ranch"
  },
  {
    "locationId": "62000084",
    "storeNumber": "00084",
    "address": {
      "addressLine1": "6412 S Parker Rd",
      "city": "Aurora",
      "state": "CO",
      "zipCode": "80016",
      "county": "ARAPAHOE COUNTY"
    },
    "geolocation": {
      "latitude": 39.6002771,
      "longitude": -104.8029032,
      "latLng": "39.6002771,-104.8029032"
    },
    "chain": "KINGSOOPERS",
    "name": "King Soopers - Arapahoe Crossing"
  },
  {
    "locationId": "62000085",
    "storeNumber": "00085",
    "address": {
      "addressLine1": "15200 W 64Th Ave",
      "city": "Arvada",
      "state": "CO",
      "zipCode": "80007",
      "county": "JEFFERSON COUNTY"
    },
    "geolocation": {
      "latitude": 39.8105874,
      "longitude": -105.1718986,
      "latLng": "39.8105874,-105.1718986"
    },
    "chain": "KINGSOOPERS",
    "name": "King Soopers - Westwoods"
  },
  {
    "locationId": "62000086",
    "storeNumber": "00086",
    "address": {
      "addressLine1": "12167 Sheridan Blvd",
      "city": "Broomfield",
      "state": "CO",
      "zipCode": "80020",
      "county": "BROOMFIELD COUNTY"
    },
    "geolocation": {
      "latitude": 39.9170735,
      "longitude": -105.055313,
      "latLng": "39.9170735,-105.055313"
    },
    "chain": "KINGSOOPERS",
    "name": "King Soopers - Broomfield on Sheridan"
  },
  {
    "locationId": "62000087",
    "storeNumber": "00087",
    "address": {
      "addressLine1": "25637 Conifer Rd",
      "city": "Conifer",
      "state": "CO",
      "zipCode": "80433",
      "county": "JEFFERSON COUNTY"
    },
    "geolocation": {
      "latitude": 39.5443479,
      "longitude": -105.2920678,
      "latLng": "39.5443479,-105.2920678"
    },
    "chain": "KINGSOOPERS",
    "name": "King Soopers - Aspen Park"
  },
  {
    "locationId": "62000088",
    "storeNumber": "00088",
    "address": {
      "addressLine1": "17031 Lincoln Ave",
      "city": "Parker",
      "state": "CO",
      "zipCode": "80134",
      "county": "DOUGLAS COUNTY"
    },
    "geolocation": {
      "latitude": 39.5360557,
      "longitude": -104.7906572,
      "latLng": "39.5360557,-104.7906572"
    },
    "chain": "KINGSOOPERS",
    "name": "King Soopers - Crossing at Stonegate"
  },
  {
    "locationId": "62000089",
    "storeNumber": "00089",
    "address": {
      "addressLine1": "1150 Us Highway 287",
      "city": "Broomfield",
      "state": "CO",
      "zipCode": "80020",
      "county": "BROOMFIELD COUNTY"
    },
    "geolocation": {
      "latitude": 39.9330827,
      "longitude": -105.0880306,
      "latLng": "39.9330827,-105.0880306"
    },
    "chain": "KINGSOOPERS",
    "name": "King Soopers - Miramonte and 287"
  },
  {
    "locationId": "62000090",
    "storeNumber": "00090",
    "address": {
      "addressLine1": "1725 Sheridan Blvd",
      "city": "Edgewater",
      "state": "CO",
      "zipCode": "80214",
      "county": "JEFFERSON COUNTY"
    },
    "geolocation": {
      "latitude": 39.7448867,
      "longitude": -105.0560734,
      "latLng": "39.7448867,-105.0560734"
    },
    "chain": "KINGSOOPERS",
    "name": "King Soopers - Sloans Lake Edgewater"
  },
  {
    "locationId": "62000091",
    "storeNumber": "00091",
    "address": {
      "addressLine1": "7284 Lagae Rd",
      "city": "Castle Pines",
      "state": "CO",
      "zipCode": "80108",
      "county": "DOUGLAS COUNTY"
    },
    "geolocation": {
      "latitude": 39.4685225,
      "longitude": -104.8793798,
      "latLng": "39.4685225,-104.8793798"
    },
    "chain": "KINGSOOPERS",
    "name": "King Soopers - Castle Pines"
  },
  {
    "locationId": "62000092",
    "storeNumber": "00092",
    "address": {
      "addressLine1": "4850 E 62Nd Ave",
      "city": "Commerce City",
      "state": "CO",
      "zipCode": "80022",
      "county": "ADAMS COUNTY"
    },
    "geolocation": {
      "latitude": 39.8087089,
      "longitude": -104.9305425,
      "latLng": "39.8087089,-104.9305425"
    },
    "chain": "KINGSOOPERS",
    "name": "King Soopers - E 32nd Ave"
  },
  {
    "locationId": "62000093",
    "storeNumber": "00093",
    "address": {
      "addressLine1": "2810 Quebec St",
      "city": "Denver",
      "state": "CO",
      "zipCode": "80207",
      "county": "DENVER COUNTY"
    },
    "geolocation": {
      "latitude": 39.756482,
      "longitude": -104.901587,
      "latLng": "39.756482,-104.901587"
    },
    "chain": "KINGSOOPERS",
    "name": "King Soopers - Quebec Street"
  },
  {
    "locationId": "62000096",
    "storeNumber": "00096",
    "address": {
      "addressLine1": "6000 S Holly St",
      "city": "Greenwood Village",
      "state": "CO",
      "zipCode": "80111",
      "county": "ARAPAHOE COUNTY"
    },
    "geolocation": {
      "latitude": 39.607694,
      "longitude": -104.920695,
      "latLng": "39.607694,-104.920695"
    },
    "chain": "KINGSOOPERS",
    "name": "King Soopers - The Orchards on Holly"
  },
  {
    "locationId": "62000097",
    "storeNumber": "00097",
    "address": {
      "addressLine1": "2602 S Timberline Rd",
      "city": "Fort Collins",
      "state": "CO",
      "zipCode": "80525",
      "county": "LARIMER COUNTY"
    },
    "geolocation": {
      "latitude": 40.5519348,
      "longitude": -105.038032,
      "latLng": "40.5519348,-105.038032"
    },
    "chain": "KINGSOOPERS",
    "name": "King Soopers - Timberline"
  },
  {
    "locationId": "62000098",
    "storeNumber": "00098",
    "address": {
      "addressLine1": "6030 Stetson Hills Blvd",
      "city": "Colorado Springs",
      "state": "CO",
      "zipCode": "80923",
      "county": "EL PASO COUNTY"
    },
    "geolocation": {
      "latitude": 38.9122512,
      "longitude": -104.7159074,
      "latLng": "38.9122512,-104.7159074"
    },
    "chain": "KINGSOOPERS",
    "name": "King Soopers - Stetson Hills"
  },
  {
    "locationId": "62000099",
    "storeNumber": "00099",
    "address": {
      "addressLine1": "1842 N College Ave",
      "city": "Fort Collins",
      "state": "CO",
      "zipCode": "80524",
      "county": "LARIMER COUNTY"
    },
    "geolocation": {
      "latitude": 40.612292,
      "longitude": -105.073371,
      "latLng": "40.612292,-105.073371"
    },
    "chain": "KINGSOOPERS",
    "name": "King Soopers Marketplace - North College Marketplace"
  },
  {
    "locationId": "62000100",
    "storeNumber": "00100",
    "address": {
      "addressLine1": "4910 S Yosemite St",
      "city": "Greenwood Village",
      "state": "CO",
      "zipCode": "80111",
      "county": "ARAPAHOE COUNTY"
    },
    "geolocation": {
      "latitude": 39.626581,
      "longitude": -104.8840296,
      "latLng": "39.626581,-104.8840296"
    },
    "chain": "KINGSOOPERS",
    "name": "King Soopers - Belleview Square"
  },
  {
    "locationId": "62000101",
    "storeNumber": "00101",
    "address": {
      "addressLine1": "13700 Colorado Blvd",
      "city": "Thornton",
      "state": "CO",
      "zipCode": "80602",
      "county": "ADAMS COUNTY"
    },
    "geolocation": {
      "latitude": 39.9447021,
      "longitude": -104.93790369999999,
      "latLng": "39.9447021,-104.93790369999999"
    },
    "chain": "KINGSOOPERS",
    "name": "King Soopers - 136th and Colorado Blvd"
  },
  {
    "locationId": "62000102",
    "storeNumber": "00102",
    "address": {
      "addressLine1": "1611 Pace St",
      "city": "Longmont",
      "state": "CO",
      "zipCode": "80504",
      "county": "BOULDER COUNTY"
    },
    "geolocation": {
      "latitude": 40.1865818,
      "longitude": -105.0758797,
      "latLng": "40.1865818,-105.0758797"
    },
    "chain": "KINGSOOPERS",
    "name": "King Soopers - Pace Street"
  },
  {
    "locationId": "62000103",
    "storeNumber": "00103",
    "address": {
      "addressLine1": "2910 S Academy Blvd",
      "city": "Colorado Springs",
      "state": "CO",
      "zipCode": "80916",
      "county": "EL PASO COUNTY"
    },
    "geolocation": {
      "latitude": 38.7904236,
      "longitude": -104.7606625,
      "latLng": "38.7904236,-104.7606625"
    },
    "chain": "KINGSOOPERS",
    "name": "King Soopers - Hancock Plaza"
  },
  {
    "locationId": "62000104",
    "storeNumber": "00104",
    "address": {
      "addressLine1": "1520 Main St",
      "city": "Windsor",
      "state": "CO",
      "zipCode": "80550",
      "county": "WELD COUNTY"
    },
    "geolocation": {
      "latitude": 40.4814382,
      "longitude": -104.92761780000001,
      "latLng": "40.4814382,-104.92761780000001"
    },
    "chain": "KINGSOOPERS",
    "name": "King Soopers - Windsor"
  },
  {
    "locationId": "62000105",
    "storeNumber": "00105",
    "address": {
      "addressLine1": "6110 Firestone Blvd",
      "city": "Firestone",
      "state": "CO",
      "zipCode": "80504",
      "county": "WELD COUNTY"
    },
    "geolocation": {
      "latitude": 40.1590859,
      "longitude": -104.9395489,
      "latLng": "40.1590859,-104.9395489"
    },
    "chain": "KINGSOOPERS",
    "name": "King Soopers - Firestone"
  },
  {
    "locationId": "62000107",
    "storeNumber": "00107",
    "address": {
      "addressLine1": "25701 E Smoky Hill Rd",
      "city": "Aurora",
      "state": "CO",
      "zipCode": "80016",
      "county": "ARAPAHOE COUNTY"
    },
    "geolocation": {
      "latitude": 39.587599,
      "longitude": -104.6872,
      "latLng": "39.587599,-104.6872"
    },
    "chain": "KINGSOOPERS",
    "name": "King Soopers Marketplace - Smoky Hill and Arapahoe"
  },
  {
    "locationId": "62000108",
    "storeNumber": "00108",
    "address": {
      "addressLine1": "4000 Red Cedar Dr",
      "city": "Highlands Ranch",
      "state": "CO",
      "zipCode": "80126",
      "county": "DOUGLAS COUNTY"
    },
    "geolocation": {
      "latitude": 39.5253356,
      "longitude": -104.9401432,
      "latLng": "39.5253356,-104.9401432"
    },
    "chain": "KINGSOOPERS",
    "name": "King Soopers - Red Cedar Drive"
  },
  {
    "locationId": "62000109",
    "storeNumber": "00109",
    "address": {
      "addressLine1": "5050 S Federal Blvd",
      "city": "Englewood",
      "state": "CO",
      "zipCode": "80110",
      "county": "ARAPAHOE COUNTY"
    },
    "geolocation": {
      "latitude": 39.6251596,
      "longitude": -105.0237356,
      "latLng": "39.6251596,-105.0237356"
    },
    "chain": "KINGSOOPERS",
    "name": "King Soopers - Federal and Belleview"
  },
  {
    "locationId": "62000110",
    "storeNumber": "00110",
    "address": {
      "addressLine1": "8673 S Quebec St",
      "city": "Highlands Ranch",
      "state": "CO",
      "zipCode": "80130",
      "county": "DOUGLAS COUNTY"
    },
    "geolocation": {
      "latitude": 39.5589536,
      "longitude": -104.9077514,
      "latLng": "39.5589536,-104.9077514"
    },
    "chain": "KINGSOOPERS",
    "name": "King Soopers - Quebec St Highland Ranch"
  },
  {
    "locationId": "62000111",
    "storeNumber": "00111",
    "address": {
      "addressLine1": "3495 S University Blvd",
      "city": "Englewood",
      "state": "CO",
      "zipCode": "80113",
      "county": "ARAPAHOE COUNTY"
    },
    "geolocation": {
      "latitude": 39.653723,
      "longitude": -104.960738,
      "latLng": "39.653723,-104.960738"
    },
    "chain": "KINGSOOPERS",
    "name": "King Soopers Fresh Fare - Fresh Fare"
  },
  {
    "locationId": "62000112",
    "storeNumber": "00112",
    "address": {
      "addressLine1": "1045 S 1St St",
      "city": "Bennett",
      "state": "CO",
      "zipCode": "80102",
      "county": "ADAMS COUNTY"
    },
    "geolocation": {
      "latitude": 39.7430515,
      "longitude": -104.435768,
      "latLng": "39.7430515,-104.435768"
    },
    "chain": "KINGSOOPERS",
    "name": "King Soopers - Bennett"
  },
  {
    "locationId": "62000114",
    "storeNumber": "00114",
    "address": {
      "addressLine1": "15051 E 104th Ave",
      "city": "Commerce City",
      "state": "CO",
      "zipCode": "80022",
      "county": "ADAMS COUNTY"
    },
    "geolocation": {
      "latitude": 39.8877452,
      "longitude": -104.8119092,
      "latLng": "39.8877452,-104.8119092"
    },
    "chain": "KINGSOOPERS",
    "name": "King Soopers Marketplace - 104th and Chambers"
  },
  {
    "locationId": "62000115",
    "storeNumber": "00115",
    "address": {
      "addressLine1": "1950 Chestnut Pl",
      "city": "Denver",
      "state": "CO",
      "zipCode": "80202",
      "county": "DENVER COUNTY"
    },
    "geolocation": {
      "latitude": 39.757185,
      "longitude": -104.998818,
      "latLng": "39.757185,-104.998818"
    },
    "chain": "KINGSOOPERS",
    "name": "King Soopers - Union Station"
  },
  {
    "locationId": "62000116",
    "storeNumber": "00116",
    "address": {
      "addressLine1": "13525 Quebec St",
      "city": "Thornton",
      "state": "CO",
      "zipCode": "80602",
      "county": "ADAMS COUNTY"
    },
    "geolocation": {
      "latitude": 39.9412446,
      "longitude": -104.9049402,
      "latLng": "39.9412446,-104.9049402"
    },
    "chain": "KINGSOOPERS",
    "name": "King Soopers Marketplace - 136th and Quebec"
  },
  {
    "locationId": "62000117",
    "storeNumber": "00117",
    "address": {
      "addressLine1": "6922 W 10Th St",
      "city": "Greeley",
      "state": "CO",
      "zipCode": "80634",
      "county": "WELD COUNTY"
    },
    "geolocation": {
      "latitude": 40.4196403,
      "longitude": -104.7924536,
      "latLng": "40.4196403,-104.7924536"
    },
    "chain": "KINGSOOPERS",
    "name": "King Soopers Marketplace - North Gate Village"
  },
  {
    "locationId": "62000118",
    "storeNumber": "00118",
    "address": {
      "addressLine1": "2355 W 136Th Ave",
      "city": "Broomfield",
      "state": "CO",
      "zipCode": "80023",
      "county": "BROOMFIELD COUNTY"
    },
    "geolocation": {
      "latitude": 39.944364,
      "longitude": -105.014833,
      "latLng": "39.944364,-105.014833"
    },
    "chain": "KINGSOOPERS",
    "name": "King Soopers - 136th and Zuni"
  },
  {
    "locationId": "62000119",
    "storeNumber": "00119",
    "address": {
      "addressLine1": "9225 N Union Blvd",
      "city": "Colorado Springs",
      "state": "CO",
      "zipCode": "80920",
      "county": "EL PASO COUNTY"
    },
    "geolocation": {
      "latitude": 38.9646651,
      "longitude": -104.7550756,
      "latLng": "38.9646651,-104.7550756"
    },
    "chain": "KINGSOOPERS",
    "name": "King Soopers - Briargate"
  },
  {
    "locationId": "62000121",
    "storeNumber": "00121",
    "address": {
      "addressLine1": "8055 Sheridan Blvd",
      "city": "Arvada",
      "state": "CO",
      "zipCode": "80003",
      "county": "JEFFERSON COUNTY"
    },
    "geolocation": {
      "latitude": 39.8435562,
      "longitude": -105.0564037,
      "latLng": "39.8435562,-105.0564037"
    },
    "chain": "KINGSOOPERS",
    "name": "King Soopers - 80th and Sheridan"
  },
  {
    "locationId": "62000122",
    "storeNumber": "00122",
    "address": {
      "addressLine1": "7901 S Broadway",
      "city": "Littleton",
      "state": "CO",
      "zipCode": "80122",
      "county": "ARAPAHOE COUNTY"
    },
    "geolocation": {
      "latitude": 39.5726648,
      "longitude": -104.9909341,
      "latLng": "39.5726648,-104.9909341"
    },
    "chain": "KINGSOOPERS",
    "name": "King Soopers - Mineral and Broadway"
  },
  {
    "locationId": "62000123",
    "storeNumber": "00123",
    "address": {
      "addressLine1": "10406 Martin Luther King BLVD",
      "city": "Denver",
      "state": "CO",
      "zipCode": "80238",
      "county": "DENVER COUNTY"
    },
    "geolocation": {
      "latitude": 39.7593405,
      "longitude": -104.8664513,
      "latLng": "39.7593405,-104.8664513"
    },
    "chain": "KINGSOOPERS",
    "name": "King Soopers - Central Park"
  },
  {
    "locationId": "62000124",
    "storeNumber": "00124",
    "address": {
      "addressLine1": "4600 Leetsdale Dr",
      "city": "Glendale",
      "state": "CO",
      "zipCode": "80246",
      "county": "ARAPAHOE COUNTY"
    },
    "geolocation": {
      "latitude": 39.7080291,
      "longitude": -104.9325168,
      "latLng": "39.7080291,-104.9325168"
    },
    "chain": "KINGSOOPERS",
    "name": "King Soopers - Glendale"
  },
  {
    "locationId": "62000125",
    "storeNumber": "00125",
    "address": {
      "addressLine1": "5544 Promenade Pkwy",
      "city": "Castle Rock",
      "state": "CO",
      "zipCode": "80108",
      "county": "DOUGLAS COUNTY"
    },
    "geolocation": {
      "latitude": 39.4146152,
      "longitude": -104.8796695,
      "latLng": "39.4146152,-104.8796695"
    },
    "chain": "KINGSOOPERS",
    "name": "King Soopers Marketplace - Promenade Parkway"
  },
  {
    "locationId": "62000126",
    "storeNumber": "00126",
    "address": {
      "addressLine1": "17761 Cottonwood Dr",
      "city": "Parker",
      "state": "CO",
      "zipCode": "80134",
      "county": "DOUGLAS COUNTY"
    },
    "geolocation": {
      "latitude": 39.560061,
      "longitude": -104.782842,
      "latLng": "39.560061,-104.782842"
    },
    "chain": "KINGSOOPERS",
    "name": "King Soopers Marketplace - Cottonwood Drive"
  },
  {
    "locationId": "62000127",
    "storeNumber": "00127",
    "address": {
      "addressLine1": "7984 W Alameda Ave",
      "city": "Lakewood",
      "state": "CO",
      "zipCode": "80226",
      "county": "JEFFERSON COUNTY"
    },
    "geolocation": {
      "latitude": 39.7094864,
      "longitude": -105.0853259,
      "latLng": "39.7094864,-105.0853259"
    },
    "chain": "KINGSOOPERS",
    "name": "King Soopers - Belmar"
  },
  {
    "locationId": "62000128",
    "storeNumber": "00128",
    "address": {
      "addressLine1": "18211 E Hampden Ave",
      "city": "Aurora",
      "state": "CO",
      "zipCode": "80013",
      "county": "ARAPAHOE COUNTY"
    },
    "geolocation": {
      "latitude": 39.6550564,
      "longitude": -104.7761737,
      "latLng": "39.6550564,-104.7761737"
    },
    "chain": "KINGSOOPERS",
    "name": "King Soopers - Hampden Crossing"
  },
  {
    "locationId": "62000129",
    "storeNumber": "00129",
    "address": {
      "addressLine1": "1891 State Highway 7",
      "city": "Erie",
      "state": "CO",
      "zipCode": "80516",
      "county": "WELD COUNTY"
    },
    "geolocation": {
      "latitude": 40.002236,
      "longitude": -105.009925,
      "latLng": "40.002236,-105.009925"
    },
    "chain": "KINGSOOPERS",
    "name": "King Soopers Marketplace - VISTA RIDGE"
  },
  {
    "locationId": "62000130",
    "storeNumber": "00130",
    "address": {
      "addressLine1": "3620 Austin Bluffs Pkwy",
      "city": "Colorado Springs",
      "state": "CO",
      "zipCode": "80918",
      "county": "EL PASO COUNTY"
    },
    "geolocation": {
      "latitude": 38.89206,
      "longitude": -104.761008,
      "latLng": "38.89206,-104.761008"
    },
    "chain": "KINGSOOPERS",
    "name": "King Soopers - Academy and Austin Bluffs"
  },
  {
    "locationId": "62000131",
    "storeNumber": "00131",
    "address": {
      "addressLine1": "100 W Littleton Blvd",
      "city": "Littleton",
      "state": "CO",
      "zipCode": "80120",
      "county": "ARAPAHOE COUNTY"
    },
    "geolocation": {
      "latitude": 39.6121466,
      "longitude": -104.9899197,
      "latLng": "39.6121466,-104.9899197"
    },
    "chain": "KINGSOOPERS",
    "name": "King Soopers - Littleton and Broadway"
  },
  {
    "locationId": "62000132",
    "storeNumber": "00132",
    "address": {
      "addressLine1": "750 N Ridge Rd",
      "city": "Castle Rock",
      "state": "CO",
      "zipCode": "80104",
      "county": "DOUGLAS COUNTY"
    },
    "geolocation": {
      "latitude": 39.375845,
      "longitude": -104.827526,
      "latLng": "39.375845,-104.827526"
    },
    "chain": "KINGSOOPERS",
    "name": "King Soopers - Ridge Road"
  },
  {
    "locationId": "62000133",
    "storeNumber": "00133",
    "address": {
      "addressLine1": "3250 Centennial Blvd",
      "city": "Colorado Springs",
      "state": "CO",
      "zipCode": "80907",
      "county": "EL PASO COUNTY"
    },
    "geolocation": {
      "latitude": 38.8772463,
      "longitude": -104.8488964,
      "latLng": "38.8772463,-104.8488964"
    },
    "chain": "KINGSOOPERS",
    "name": "King Soopers - Centennial Blvd and Fillmore"
  },
  {
    "locationId": "62000134",
    "storeNumber": "00134",
    "address": {
      "addressLine1": "7915 Constitution Ave",
      "city": "Colorado Springs",
      "state": "CO",
      "zipCode": "80951",
      "county": "EL PASO COUNTY"
    },
    "geolocation": {
      "latitude": 38.866204,
      "longitude": -104.680209,
      "latLng": "38.866204,-104.680209"
    },
    "chain": "KINGSOOPERS",
    "name": "King Soopers Marketplace - Constitution Avenue"
  },
  {
    "locationId": "62000135",
    "storeNumber": "00135",
    "address": {
      "addressLine1": "325 N Crossing Dr",
      "city": "Lafayette",
      "state": "CO",
      "zipCode": "80026",
      "county": "BOULDER COUNTY"
    },
    "geolocation": {
      "latitude": 40.000636,
      "longitude": -105.100973,
      "latLng": "40.000636,-105.100973"
    },
    "chain": "KINGSOOPERS",
    "name": "King Soopers - Lafayette Fuel"
  },
  {
    "locationId": "62000136",
    "storeNumber": "00136",
    "address": {
      "addressLine1": "100 N 50th Ave",
      "city": "Brighton",
      "state": "CO",
      "zipCode": "80601",
      "county": "ADAMS COUNTY"
    },
    "geolocation": {
      "latitude": 39.988666,
      "longitude": -104.749903,
      "latLng": "39.988666,-104.749903"
    },
    "chain": "KINGSOOPERS",
    "name": "King Soopers Marketplace - 50th and Bridge Street"
  },
  {
    "locationId": "62000137",
    "storeNumber": "00137",
    "address": {
      "addressLine1": "14967 Candelas Pkwy",
      "city": "Arvada",
      "state": "CO",
      "zipCode": "80007",
      "county": "JEFFERSON COUNTY"
    },
    "geolocation": {
      "latitude": 39.86169,
      "longitude": -105.1677473,
      "latLng": "39.86169,-105.1677473"
    },
    "chain": "KINGSOOPERS",
    "name": "King Soopers Marketplace - Candelas"
  },
  {
    "locationId": "62000138",
    "storeNumber": "00138",
    "address": {
      "addressLine1": "Arapahoe Rd",
      "city": "Erie",
      "state": "CO",
      "zipCode": "80026",
      "county": "BOULDER COUNTY"
    },
    "geolocation": {
      "latitude": 40.0141818,
      "longitude": -105.1016419,
      "latLng": "40.0141818,-105.1016419"
    },
    "chain": "KINGSOOPERS",
    "name": "King Soopers - King Soopers"
  },
  {
    "locationId": "62000139",
    "storeNumber": "00139",
    "address": {
      "addressLine1": "3050 S Peoria St",
      "city": "Aurora",
      "state": "CO",
      "zipCode": "80014",
      "county": "ARAPAHOE COUNTY"
    },
    "geolocation": {
      "latitude": 39.661051,
      "longitude": -104.844559,
      "latLng": "39.661051,-104.844559"
    },
    "chain": "KINGSOOPERS",
    "name": "King Soopers - Nine Mile"
  },
  {
    "locationId": "62000147",
    "storeNumber": "00147",
    "address": {
      "addressLine1": "7530 Falcon Market Pl",
      "city": "Falcon",
      "state": "CO",
      "zipCode": "80831",
      "county": "EL PASO COUNTY"
    },
    "geolocation": {
      "latitude": 38.9432065,
      "longitude": -104.61041,
      "latLng": "38.9432065,-104.61041"
    },
    "chain": "KINGSOOPERS",
    "name": "King Soopers - Woodman  Falcon"
  },
  {
    "locationId": "62000401",
    "storeNumber": "00401",
    "address": {
      "addressLine1": "2770 Highway 50",
      "city": "Grand Junction",
      "state": "CO",
      "zipCode": "81503",
      "county": "MESA COUNTY"
    },
    "geolocation": {
      "latitude": 39.0399609,
      "longitude": -108.5389668,
      "latLng": "39.0399609,-108.5389668"
    },
    "chain": "CITYMARKET",
    "name": "City Market - Orchard Mesa"
  },
  {
    "locationId": "62000403",
    "storeNumber": "00403",
    "address": {
      "addressLine1": "128 S Townsend Ave",
      "city": "Montrose",
      "state": "CO",
      "zipCode": "81401",
      "county": "MONTROSE COUNTY"
    },
    "geolocation": {
      "latitude": 38.4766602,
      "longitude": -107.8777482,
      "latLng": "38.4766602,-107.8777482"
    },
    "chain": "CITYMARKET",
    "name": "City Market - Downtown Montrose"
  },
  {
    "locationId": "62000404",
    "storeNumber": "00404",
    "address": {
      "addressLine1": "122 Gunnison River Dr",
      "city": "Delta",
      "state": "CO",
      "zipCode": "81416",
      "county": "DELTA COUNTY"
    },
    "geolocation": {
      "latitude": 38.7475539,
      "longitude": -108.0722945,
      "latLng": "38.7475539,-108.0722945"
    },
    "chain": "CITYMARKET",
    "name": "City Market - Delta"
  },
  {
    "locationId": "62000405",
    "storeNumber": "00405",
    "address": {
      "addressLine1": "1410 Grand Ave",
      "city": "Glenwood Springs",
      "state": "CO",
      "zipCode": "81601",
      "county": "GARFIELD COUNTY"
    },
    "geolocation": {
      "latitude": 39.5386301,
      "longitude": -107.3232532,
      "latLng": "39.5386301,-107.3232532"
    },
    "chain": "CITYMARKET",
    "name": "City Market - Glenwood Springs"
  },
  {
    "locationId": "62000406",
    "storeNumber": "00406",
    "address": {
      "addressLine1": "6 Town PLZ",
      "city": "Durango",
      "state": "CO",
      "zipCode": "81301",
      "county": "LA PLATA COUNTY"
    },
    "geolocation": {
      "latitude": 37.2742404,
      "longitude": -107.8824442,
      "latLng": "37.2742404,-107.8824442"
    },
    "chain": "CITYMARKET",
    "name": "City Market - South Durango"
  },
  {
    "locationId": "62000408",
    "storeNumber": "00408",
    "address": {
      "addressLine1": "508 E Main St",
      "city": "Cortez",
      "state": "CO",
      "zipCode": "81321",
      "county": "MONTEZUMA COUNTY"
    },
    "geolocation": {
      "latitude": 37.3494882,
      "longitude": -108.5777694,
      "latLng": "37.3494882,-108.5777694"
    },
    "chain": "CITYMARKET",
    "name": "City Market - Cortez"
  },
  {
    "locationId": "62000413",
    "storeNumber": "00413",
    "address": {
      "addressLine1": "135 S Plum St",
      "city": "Fruita",
      "state": "CO",
      "zipCode": "81521",
      "county": "MESA COUNTY"
    },
    "geolocation": {
      "latitude": 39.1577506,
      "longitude": -108.7352014,
      "latLng": "39.1577506,-108.7352014"
    },
    "chain": "CITYMARKET",
    "name": "City Market - Fruita"
  },
  {
    "locationId": "62000414",
    "storeNumber": "00414",
    "address": {
      "addressLine1": "1825 Central Park Dr",
      "city": "Steamboat Springs",
      "state": "CO",
      "zipCode": "80487",
      "county": "ROUTT COUNTY"
    },
    "geolocation": {
      "latitude": 40.4630805,
      "longitude": -106.8215977,
      "latLng": "40.4630805,-106.8215977"
    },
    "chain": "CITYMARKET",
    "name": "City Market - Steamboat Springs"
  },
  {
    "locationId": "62000415",
    "storeNumber": "00415",
    "address": {
      "addressLine1": "505 W Victory Way",
      "city": "Craig",
      "state": "CO",
      "zipCode": "81625",
      "county": "MOFFAT COUNTY"
    },
    "geolocation": {
      "latitude": 40.5150144,
      "longitude": -107.5538186,
      "latLng": "40.5150144,-107.5538186"
    },
    "chain": "CITYMARKET",
    "name": "City Market - Craig"
  },
  {
    "locationId": "62000416",
    "storeNumber": "00416",
    "address": {
      "addressLine1": "711 E Cooper Ave",
      "city": "Aspen",
      "state": "CO",
      "zipCode": "81611",
      "county": "PITKIN COUNTY"
    },
    "geolocation": {
      "latitude": 39.1871992,
      "longitude": -106.8157882,
      "latLng": "39.1871992,-106.8157882"
    },
    "chain": "CITYMARKET",
    "name": "City Market - Aspen"
  },
  {
    "locationId": "62000417",
    "storeNumber": "00417",
    "address": {
      "addressLine1": "1703 Fremont Dr",
      "city": "Canon City",
      "state": "CO",
      "zipCode": "81212",
      "county": "FREMONT COUNTY"
    },
    "geolocation": {
      "latitude": 38.4487203,
      "longitude": -105.2238959,
      "latLng": "38.4487203,-105.2238959"
    },
    "chain": "CITYMARKET",
    "name": "City Market - Canon City"
  },
  {
    "locationId": "62000419",
    "storeNumber": "00419",
    "address": {
      "addressLine1": "880 N Main St",
      "city": "Gunnison",
      "state": "CO",
      "zipCode": "81230",
      "county": "GUNNISON COUNTY"
    },
    "geolocation": {
      "latitude": 38.5532667,
      "longitude": -106.9253503,
      "latLng": "38.5532667,-106.9253503"
    },
    "chain": "CITYMARKET",
    "name": "City Market - Gunnison"
  },
  {
    "locationId": "62000420",
    "storeNumber": "00420",
    "address": {
      "addressLine1": "300 Dillon Ridge Way",
      "city": "Dillon",
      "state": "CO",
      "zipCode": "80435",
      "county": "SUMMIT COUNTY"
    },
    "geolocation": {
      "latitude": 39.630504,
      "longitude": -106.055478,
      "latLng": "39.630504,-106.055478"
    },
    "chain": "CITYMARKET",
    "name": "City Market - Dillon Ridge Road"
  },
  {
    "locationId": "62000421",
    "storeNumber": "00421",
    "address": {
      "addressLine1": "3130 Main Ave",
      "city": "Durango",
      "state": "CO",
      "zipCode": "81301",
      "county": "LA PLATA COUNTY"
    },
    "geolocation": {
      "latitude": 37.2999012,
      "longitude": -107.870071,
      "latLng": "37.2999012,-107.870071"
    },
    "chain": "CITYMARKET",
    "name": "City Market - Main Avenue Durango"
  },
  {
    "locationId": "62000422",
    "storeNumber": "00422",
    "address": {
      "addressLine1": "131 Market St",
      "city": "Alamosa",
      "state": "CO",
      "zipCode": "81101",
      "county": "ALAMOSA COUNTY"
    },
    "geolocation": {
      "latitude": 37.4758336,
      "longitude": -105.8916844,
      "latLng": "37.4758336,-105.8916844"
    },
    "chain": "CITYMARKET",
    "name": "City Market - Alamosa"
  },
  {
    "locationId": "62000425",
    "storeNumber": "00425",
    "address": {
      "addressLine1": "569 32 Rd",
      "city": "Grand Junction",
      "state": "CO",
      "zipCode": "81504",
      "county": "MESA COUNTY"
    },
    "geolocation": {
      "latitude": 39.0874893,
      "longitude": -108.4614428,
      "latLng": "39.0874893,-108.4614428"
    },
    "chain": "CITYMARKET",
    "name": "City Market - Clifton"
  },
  {
    "locationId": "62000426",
    "storeNumber": "00426",
    "address": {
      "addressLine1": "72 Beaver Creek Pl",
      "city": "Avon",
      "state": "CO",
      "zipCode": "81620",
      "county": "EAGLE COUNTY"
    },
    "geolocation": {
      "latitude": 39.633836,
      "longitude": -106.517577,
      "latLng": "39.633836,-106.517577"
    },
    "chain": "CITYMARKET",
    "name": "City Market - Avon"
  },
  {
    "locationId": "62000429",
    "storeNumber": "00429",
    "address": {
      "addressLine1": "215 6th St",
      "city": "Hotchkiss",
      "state": "CO",
      "zipCode": "81419",
      "county": "DELTA COUNTY"
    },
    "geolocation": {
      "latitude": 38.7996133,
      "longitude": -107.712441,
      "latLng": "38.7996133,-107.712441"
    },
    "chain": "CITYMARKET",
    "name": "City Market - Hotchkiss"
  },
  {
    "locationId": "62000430",
    "storeNumber": "00430",
    "address": {
      "addressLine1": "400 N Park Ave",
      "city": "Breckenridge",
      "state": "CO",
      "zipCode": "80424",
      "county": "SUMMIT COUNTY"
    },
    "geolocation": {
      "latitude": 39.488771,
      "longitude": -106.046866,
      "latLng": "39.488771,-106.046866"
    },
    "chain": "CITYMARKET",
    "name": "City Market - Breckenridge"
  },
  {
    "locationId": "62000431",
    "storeNumber": "00431",
    "address": {
      "addressLine1": "777 Gold Hill Pl S",
      "city": "Woodland Park",
      "state": "CO",
      "zipCode": "80863",
      "county": "TELLER COUNTY"
    },
    "geolocation": {
      "latitude": 38.9912382,
      "longitude": -105.0591432,
      "latLng": "38.9912382,-105.0591432"
    },
    "chain": "CITYMARKET",
    "name": "City Market - Gold Hill Woodland Park"
  },
  {
    "locationId": "62000433",
    "storeNumber": "00433",
    "address": {
      "addressLine1": "250 E Valley Rd",
      "city": "El Jebel",
      "state": "CO",
      "zipCode": "81623",
      "county": "GARFIELD COUNTY"
    },
    "geolocation": {
      "latitude": 39.3914178,
      "longitude": -107.0875876,
      "latLng": "39.3914178,-107.0875876"
    },
    "chain": "CITYMARKET",
    "name": "City Market - El Jebel"
  },
  {
    "locationId": "62000434",
    "storeNumber": "00434",
    "address": {
      "addressLine1": "13 Market St",
      "city": "Eagle",
      "state": "CO",
      "zipCode": "81631",
      "county": "EAGLE COUNTY"
    },
    "geolocation": {
      "latitude": 39.6628011,
      "longitude": -106.8258317,
      "latLng": "39.6628011,-106.8258317"
    },
    "chain": "CITYMARKET",
    "name": "City Market - Eagle"
  },
  {
    "locationId": "62000437",
    "storeNumber": "00437",
    "address": {
      "addressLine1": "438 US Highway 24 N",
      "city": "Buena Vista",
      "state": "CO",
      "zipCode": "81211",
      "county": "CHAFFEE COUNTY"
    },
    "geolocation": {
      "latitude": 38.836912,
      "longitude": -106.131222,
      "latLng": "38.836912,-106.131222"
    },
    "chain": "CITYMARKET",
    "name": "City Market - Buena Vista"
  },
  {
    "locationId": "62000440",
    "storeNumber": "00440",
    "address": {
      "addressLine1": "16400 S Townsend Ave",
      "city": "Montrose",
      "state": "CO",
      "zipCode": "81401",
      "county": "MONTROSE COUNTY"
    },
    "geolocation": {
      "latitude": 38.4528667,
      "longitude": -107.8648684,
      "latLng": "38.4528667,-107.8648684"
    },
    "chain": "CITYMARKET",
    "name": "City Market - South Montrose"
  },
  {
    "locationId": "62000441",
    "storeNumber": "00441",
    "address": {
      "addressLine1": "850 Castle Valley Blvd",
      "city": "New Castle",
      "state": "CO",
      "zipCode": "81647",
      "county": "GARFIELD COUNTY"
    },
    "geolocation": {
      "latitude": 39.5686385,
      "longitude": -107.5137036,
      "latLng": "39.5686385,-107.5137036"
    },
    "chain": "CITYMARKET",
    "name": "City Market - New Castle"
  },
  {
    "locationId": "62000442",
    "storeNumber": "00442",
    "address": {
      "addressLine1": "2109 N Frontage Rd W",
      "city": "Vail",
      "state": "CO",
      "zipCode": "81657",
      "county": "EAGLE COUNTY"
    },
    "geolocation": {
      "latitude": 39.63242,
      "longitude": -106.416406,
      "latLng": "39.63242,-106.416406"
    },
    "chain": "CITYMARKET",
    "name": "City Market - Vail"
  },
  {
    "locationId": "62000443",
    "storeNumber": "00443",
    "address": {
      "addressLine1": "1320 Railroad Ave",
      "city": "Rifle",
      "state": "CO",
      "zipCode": "81650",
      "county": "GARFIELD COUNTY"
    },
    "geolocation": {
      "latitude": 39.5425664,
      "longitude": -107.782684,
      "latLng": "39.5425664,-107.782684"
    },
    "chain": "CITYMARKET",
    "name": "City Market - Rifle"
  },
  {
    "locationId": "62000444",
    "storeNumber": "00444",
    "address": {
      "addressLine1": "2600 N 12th St",
      "city": "Grand Junction",
      "state": "CO",
      "zipCode": "81501",
      "county": "MESA COUNTY"
    },
    "geolocation": {
      "latitude": 39.090791,
      "longitude": -108.550707,
      "latLng": "39.090791,-108.550707"
    },
    "chain": "CITYMARKET",
    "name": "City Market - 12th Street Grand Junction"
  },
  {
    "locationId": "62000445",
    "storeNumber": "00445",
    "address": {
      "addressLine1": "165 Country Center Dr",
      "city": "Pagosa Springs",
      "state": "CO",
      "zipCode": "81147",
      "county": "ARCHULETA COUNTY"
    },
    "geolocation": {
      "latitude": 37.2571364,
      "longitude": -107.0762517,
      "latLng": "37.2571364,-107.0762517"
    },
    "chain": "CITYMARKET",
    "name": "City Market - Pagosa"
  },
  {
    "locationId": "62000446",
    "storeNumber": "00446",
    "address": {
      "addressLine1": "1001 Thompson Rd",
      "city": "Granby",
      "state": "CO",
      "zipCode": "80446",
      "county": "GRAND COUNTY"
    },
    "geolocation": {
      "latitude": 40.062807,
      "longitude": -105.929407,
      "latLng": "40.062807,-105.929407"
    },
    "chain": "CITYMARKET",
    "name": "City Market - Granby"
  },
  {
    "locationId": "62000447",
    "storeNumber": "00447",
    "address": {
      "addressLine1": "905 Highway 133",
      "city": "Carbondale",
      "state": "CO",
      "zipCode": "81623",
      "county": "GARFIELD COUNTY"
    },
    "geolocation": {
      "latitude": 39.40326,
      "longitude": -107.222205,
      "latLng": "39.40326,-107.222205"
    },
    "chain": "CITYMARKET",
    "name": "City Market - Carbondale"
  },
  {
    "locationId": "62000451",
    "storeNumber": "00451",
    "address": {
      "addressLine1": "630 24 Rd",
      "city": "Grand Junction",
      "state": "CO",
      "zipCode": "81505",
      "county": "MESA COUNTY"
    },
    "geolocation": {
      "latitude": 39.0967788,
      "longitude": -108.6070626,
      "latLng": "39.0967788,-108.6070626"
    },
    "chain": "CITYMARKET",
    "name": "City Market - 24 Road Grand Junction"
  },
  {
    "locationId": "62000499",
    "storeNumber": "00499",
    "address": {
      "addressLine1": "685 E Cooper Ave",
      "city": "Aspen",
      "state": "CO",
      "zipCode": "81611",
      "county": "PITKIN COUNTY"
    },
    "geolocation": {
      "latitude": 39.187424,
      "longitude": -106.816734,
      "latLng": "39.187424,-106.816734"
    },
    "chain": "CITYMARKET",
    "name": "City Market - Aspen Pharmacy"
  },
  {
    "locationId": "62000640",
    "storeNumber": "00640",
    "address": {
      "addressLine1": "198 S Union Blvd",
      "city": "Lakewood",
      "state": "CO",
      "zipCode": "80228",
      "county": "JEFFERSON COUNTY"
    },
    "geolocation": {
      "latitude": 39.712085,
      "longitude": -105.132927,
      "latLng": "39.712085,-105.132927"
    },
    "chain": "KINGSOOPERS",
    "name": "King Soopers - Green Mountain Fuel"
  },
  {
    "locationId": "62000991",
    "storeNumber": "00991",
    "address": {
      "addressLine1": "6125 Jackson Gap St",
      "city": "Aurora",
      "state": "CO",
      "zipCode": "80019",
      "county": "ARAPAHOE COUNTY"
    },
    "geolocation": {
      "latitude": 39.807968,
      "longitude": -104.6892966,
      "latLng": "39.807968,-104.6892966"
    },
    "chain": "KINGSOOPERS",
    "name": "King Soopers - Denver Loyalty"
  },
  {
    "locationId": "62000992",
    "storeNumber": "00992",
    "address": {
      "addressLine1": "4151 Ronald Reagan Blvd",
      "city": "Johnstown",
      "state": "CO",
      "zipCode": "80534",
      "county": "WELD COUNTY"
    },
    "geolocation": {
      "latitude": 40.403965,
      "longitude": -104.97055399999999,
      "latLng": "40.403965,-104.97055399999999"
    },
    "chain": "KINGSOOPERS",
    "name": "King Soopers - Northern CO Loyalty"
  }
]
